{"http://dbpedia.org/resource/Dusseldorf": {"lat": "51.227718", "lng": "6.773600", "city": "http://dbpedia.org/resource/Dusseldorf", "country": "http://dbpedia.org/resource/Germany", "count": 1}, "http://dbpedia.org/resource/Stockholm": {"lat": "59.329445", "lng": "18.068611", "city": "http://dbpedia.org/resource/Stockholm", "country": "http://dbpedia.org/resource/Sweden", "count": 2}, "http://dbpedia.org/resource/Oslo": {"lat": "59.949444", "lng": "10.756389", "city": "http://dbpedia.org/resource/Oslo", "country": "http://dbpedia.org/resource/Norway", "count": 1}, "http://dbpedia.org/resource/The_Hague": {"lat": "52.083332", "lng": "4.316667", "city": "http://dbpedia.org/resource/The_Hague", "country": "http://dbpedia.org/resource/Netherlands", "count": 1}, "http://dbpedia.org/resource/New_York_City": {"lat": "40.664165", "lng": "-73.938614", "city": "http://dbpedia.org/resource/New_York_City", "country": "http://dbpedia.org/resource/United_States", "count": 1}}