{"http://dbpedia.org/resource/Wuppertal": {"lat": "51.266666", "lng": "7.183333", "city": "http://dbpedia.org/resource/Wuppertal", "country": "http://dbpedia.org/resource/Germany", "count": 3}, "http://dbpedia.org/resource/Dusseldorf": {"lat": "51.227718", "lng": "6.773600", "city": "http://dbpedia.org/resource/Dusseldorf", "country": "http://dbpedia.org/resource/Germany", "count": 2}, "http://dbpedia.org/resource/Paris": {"lat": "48.856701", "lng": "2.350800", "city": "http://dbpedia.org/resource/Paris", "country": "http://dbpedia.org/resource/France", "count": 2}, "http://dbpedia.org/resource/Wiesbaden": {"lat": "50.082054", "lng": "8.241377", "city": "http://dbpedia.org/resource/Wiesbaden", "country": "http://dbpedia.org/resource/Germany", "count": 1}, "http://dbpedia.org/resource/Amsterdam": {"lat": "52.373055", "lng": "4.892222", "city": "http://dbpedia.org/resource/Amsterdam", "country": "http://dbpedia.org/resource/Netherlands", "count": 1}, "http://dbpedia.org/resource/Copenhagen": {"lat": "55.676109", "lng": "12.568334", "city": "http://dbpedia.org/resource/Copenhagen", "country": "http://dbpedia.org/resource/Denmark", "count": 1}, "http://dbpedia.org/resource/New_York_City": {"lat": "40.664165", "lng": "-73.938614", "city": "http://dbpedia.org/resource/New_York_City", "country": "http://dbpedia.org/resource/United_States", "count": 14}, "http://dbpedia.org/resource/The_Hague": {"lat": "52.083332", "lng": "4.316667", "city": "http://dbpedia.org/resource/The_Hague", "country": "http://dbpedia.org/resource/Netherlands", "count": 1}, "http://dbpedia.org/resource/Venice": {"lat": "45.437500", "lng": "12.335834", "city": "http://dbpedia.org/resource/Venice", "country": "http://dbpedia.org/resource/Italy", "count": 3}, "http://dbpedia.org/resource/London": {"lat": "51.508999", "lng": "-0.126000", "city": "http://dbpedia.org/resource/London", "country": "http://dbpedia.org/resource/United_Kingdom", "count": 1}, "http://dbpedia.org/resource/Prague": {"lat": "50.083332", "lng": "14.416667", "city": "http://dbpedia.org/resource/Prague", "country": "http://dbpedia.org/resource/Czech_Republic", "count": 2}, "http://dbpedia.org/resource/Rome": {"lat": "41.900002", "lng": "12.500000", "city": "http://dbpedia.org/resource/Rome", "country": "http://dbpedia.org/resource/Italy", "count": 1}, "http://dbpedia.org/resource/San_Francisco": {"lat": "37.783333", "lng": "-122.419197", "city": "http://dbpedia.org/resource/San_Francisco", "country": "http://dbpedia.org/resource/United_States", "count": 1}, "http://dbpedia.org/resource/Milan": {"lat": "45.464169", "lng": "9.190278", "city": "http://dbpedia.org/resource/Milan", "country": "http://dbpedia.org/resource/Italy", "count": 1}, "http://dbpedia.org/resource/Modena": {"lat": "44.650002", "lng": "10.933333", "city": "http://dbpedia.org/resource/Modena", "country": "http://dbpedia.org/resource/Italy", "count": 1}, "http://dbpedia.org/resource/Palo_Alto,_California": {"lat": "37.429165", "lng": "-122.138054", "city": "http://dbpedia.org/resource/Palo_Alto,_California", "country": "http://dbpedia.org/resource/United_States", "count": 1}, "http://dbpedia.org/resource/Nice": {"lat": "43.703400", "lng": "7.266300", "city": "http://dbpedia.org/resource/Nice", "country": "http://dbpedia.org/resource/France", "count": 1}, "http://dbpedia.org/resource/Trieste": {"lat": "45.633335", "lng": "13.800000", "city": "http://dbpedia.org/resource/Trieste", "country": "http://dbpedia.org/resource/Italy", "count": 1}}