{"http://dbpedia.org/resource/Prague": {"lat": "50.083332", "lng": "14.416667", "city": "http://dbpedia.org/resource/Prague", "country": "http://dbpedia.org/resource/Czech_Republic", "count": 5}, "http://dbpedia.org/resource/San_Francisco": {"lat": "37.783333", "lng": "-122.419197", "city": "http://dbpedia.org/resource/San_Francisco", "country": "http://dbpedia.org/resource/United_States", "count": 2}, "http://dbpedia.org/resource/New_York_City": {"lat": "40.664165", "lng": "-73.938614", "city": "http://dbpedia.org/resource/New_York_City", "country": "http://dbpedia.org/resource/United_States", "count": 2}, "http://dbpedia.org/resource/Palo_Alto,_California": {"lat": "37.429165", "lng": "-122.138054", "city": "http://dbpedia.org/resource/Palo_Alto,_California", "country": "http://dbpedia.org/resource/United_States", "count": 1}, "http://dbpedia.org/resource/New_Brunswick,_New_Jersey": {"lat": "40.486679", "lng": "-74.444412", "city": "http://dbpedia.org/resource/New_Brunswick,_New_Jersey", "country": "http://dbpedia.org/resource/United_States", "count": 1}}