{"http://dbpedia.org/resource/New_York_City": {"lat": "40.664165", "lng": "-73.938614", "city": "http://dbpedia.org/resource/New_York_City", "country": "http://dbpedia.org/resource/United_States", "count": 25}, "http://dbpedia.org/resource/Tokyo": {"lat": "35.700554", "lng": "139.691696", "city": "http://dbpedia.org/resource/Tokyo", "country": "http://dbpedia.org/resource/Japan", "count": 6}, "http://dbpedia.org/resource/Kyoto": {"lat": "35.011665", "lng": "135.768326", "city": "http://dbpedia.org/resource/Kyoto", "country": "http://dbpedia.org/resource/Japan", "count": 2}, "http://dbpedia.org/resource/Berlin": {"lat": "52.500557", "lng": "13.398889", "city": "http://dbpedia.org/resource/Berlin", "country": "http://dbpedia.org/resource/Germany", "count": 2}, "http://dbpedia.org/resource/London": {"lat": "51.507221", "lng": "-0.127500", "city": "http://dbpedia.org/resource/London", "country": "http://dbpedia.org/resource/United_Kingdom", "count": 13}, "http://dbpedia.org/resource/Middletown,_Connecticut": {"lat": "41.562222", "lng": "-72.650833", "city": "http://dbpedia.org/resource/Middletown,_Connecticut", "country": "http://dbpedia.org/resource/United_States", "count": 1}, "http://dbpedia.org/resource/Milan": {"lat": "45.464169", "lng": "9.190278", "city": "http://dbpedia.org/resource/Milan", "country": "http://dbpedia.org/resource/Italy", "count": 1}, "http://dbpedia.org/resource/Venice": {"lat": "45.437500", "lng": "12.335834", "city": "http://dbpedia.org/resource/Venice", "country": "http://dbpedia.org/resource/Italy", "count": 1}, "http://dbpedia.org/resource/Modena": {"lat": "44.650002", "lng": "10.933333", "city": "http://dbpedia.org/resource/Modena", "country": "http://dbpedia.org/resource/Italy", "count": 1}, "http://dbpedia.org/resource/Nice": {"lat": "43.703400", "lng": "7.266300", "city": "http://dbpedia.org/resource/Nice", "country": "http://dbpedia.org/resource/France", "count": 1}, "http://dbpedia.org/resource/Leeds": {"lat": "53.799721", "lng": "-1.549167", "city": "http://dbpedia.org/resource/Leeds", "country": "http://dbpedia.org/resource/United_Kingdom", "count": 1}, "http://dbpedia.org/resource/Birmingham": {"lat": "52.479599", "lng": "-1.903000", "city": "http://dbpedia.org/resource/Birmingham", "country": "http://dbpedia.org/resource/United_Kingdom", "count": 1}, "http://dbpedia.org/resource/Guildford": {"lat": "51.236500", "lng": "-0.570300", "city": "http://dbpedia.org/resource/Guildford", "country": "http://dbpedia.org/resource/United_Kingdom", "count": 1}, "http://dbpedia.org/resource/Liverpool": {"lat": "53.400002", "lng": "-2.983333", "city": "http://dbpedia.org/resource/Liverpool", "country": "http://dbpedia.org/resource/United_Kingdom", "count": 1}, "http://dbpedia.org/resource/Paris": {"lat": "48.856701", "lng": "2.350800", "city": "http://dbpedia.org/resource/Paris", "country": "http://dbpedia.org/resource/France", "count": 1}, "http://dbpedia.org/resource/Trieste": {"lat": "45.633335", "lng": "13.800000", "city": "http://dbpedia.org/resource/Trieste", "country": "http://dbpedia.org/resource/Italy", "count": 1}, "http://dbpedia.org/resource/Montreal": {"lat": "45.516666", "lng": "-73.650002", "city": "http://dbpedia.org/resource/Montreal", "country": "http://dbpedia.org/resource/Canada", "count": 1}, "http://dbpedia.org/resource/Amsterdam": {"lat": "52.373055", "lng": "4.892222", "city": "http://dbpedia.org/resource/Amsterdam", "country": "http://dbpedia.org/resource/Netherlands", "count": 1}}